[
  {"LocationID": "LOC001", "Name": "Cảng (Port)", "Type": "Port", "Address": "District 7, Ho Chi Minh City", "Coordinates": {"x": 10.7365, "y": 106.722}},
  {"LocationID": "LOC002", "Name": "Kho Hàng (Warehouse)", "Type": "Warehouse", "Address": "District 2, Ho Chi Minh City", "Coordinates": {"x": 10.7877, "y": 106.749}},
  {"LocationID": "LOC003", "Name": "DEPOT", "Type": "Depot", "Address": "District 9, Ho Chi Minh City", "Coordinates": {"x": 10.8520, "y": 106.775}},
  {"LocationID": "LOC004", "Name": "Kho vật tư", "Type": "Kho_vat_tu", "Address": "Binh Thanh District, Ho Chi Minh City", "Coordinates": {"x": 10.8015, "y": 106.707}},
  {"LocationID": "LOC005", "Name": "Cửa Khẩu", "Type": "Cua_khau", "Address": "District 5, Ho Chi Minh City", "Coordinates": {"x": 10.7563, "y": 106.667}},
  {"LocationID": "LOC006", "Name": "DEPOT A CHUAN", "Type": "Depot", "Address": "Bình Chuẩn 60, Bình Chuẩn, Tp. Thủ Dầu Một, Bình Dương", "Coordinates": {"x": 10.9835, "y": 106.683}},
  {"LocationID": "LOC007", "Name": "ACODE SPORTING", "Type": null, "Address": "VSII MỞ RỘNG", "Coordinates": {"x": 10.9900, "y": 106.660}},
  {"LocationID": "LOC008", "Name": "ALPHA HOME", "Type": null, "Address": "Thửa đất số 123, 124, 125, Tờ bản đồ số 8, ấp 4 - Xã Tân Mỹ - Huyện Bắc Tân Uyên - Bình Dương", "Coordinates": {"x": 11.1500, "y": 106.680}},
  {"LocationID": "LOC009", "Name": "ANAQ", "Type": null, "Address": "Lô 1C7, 1C8, đường CN8, Khu Công nghiệp Tân Bình, xã Hưng Hòa, huyện Bàu Bàng, tỉnh Bình Dương", "Coordinates": {"x": 11.2010, "y": 106.765}},
  {"LocationID": "LOC010", "Name": "Port Binh Duong", "Type": "Port", "Address": "Phu My, Binh Duong", "Coordinates": {"x": 10.8800, "y": 106.808}},
  {"LocationID": "LOC011", "Name": "Depot Saigon East", "Type": "Depot", "Address": "District 9, Ho Chi Minh City", "Coordinates": {"x": 10.8600, "y": 106.779}},
  {"LocationID": "LOC012", "Name": "Kho Logistics City", "Type": "Warehouse", "Address": "Thu Duc City, Ho Chi Minh City", "Coordinates": {"x": 10.8700, "y": 106.770}},
  {"LocationID": "LOC013", "Name": "Vietnam-Singapore Port", "Type": "Port", "Address": "Binh Chanh, Ho Chi Minh City", "Coordinates": {"x": 10.6900, "y": 106.590}},
  {"LocationID": "LOC014", "Name": "Customs Depot East", "Type": "Depot", "Address": "District 9, Ho Chi Minh City", "Coordinates": {"x": 10.8550, "y": 106.782}},
  {"LocationID": "LOC015", "Name": "Binh Tan Warehouse", "Type": "Warehouse", "Address": "Binh Tan District, Ho Chi Minh City", "Coordinates": {"x": 10.7650, "y": 106.603}},
  {"LocationID": "LOC016", "Name": "Tan Cang Border Gate", "Type": "Cua_khau", "Address": "District 4, Ho Chi Minh City", "Coordinates": {"x": 10.7590, "y": 106.701}},
  {"LocationID": "LOC017", "Name": "Thao Dien Materials Warehouse", "Type": "Kho_vat_tu", "Address": "District 2, Ho Chi Minh City", "Coordinates": {"x": 10.8000, "y": 106.740}},
  {"LocationID": "LOC018", "Name": "Go Vap Depot", "Type": "Depot", "Address": "Go Vap District, Ho Chi Minh City", "Coordinates": {"x": 10.8300, "y": 106.665}},
  {"LocationID": "LOC019", "Name": "Phu Nhuan Warehouse", "Type": "Warehouse", "Address": "Phu Nhuan District, Ho Chi Minh City", "Coordinates": {"x": 10.7950, "y": 106.680}},
  {"LocationID": "LOC020", "Name": "Thu Thiem New Port", "Type": "Port", "Address": "Thu Duc City, Ho Chi Minh City", "Coordinates": {"x": 10.7650, "y": 106.775}},
  {"LocationID": "LOC021", "Name": "Hoc Mon Customs Warehouse", "Type": "Warehouse", "Address": "Hoc Mon District, Ho Chi Minh City", "Coordinates": {"x": 10.8830, "y": 106.587}},
  {"LocationID": "LOC022", "Name": "Can Gio Port", "Type": "Port", "Address": "Can Gio District, Ho Chi Minh City", "Coordinates": {"x": 10.4150, "y": 106.966}},
  {"LocationID": "LOC023", "Name": "Nha Be Depot", "Type": "Depot", "Address": "Nha Be District, Ho Chi Minh City", "Coordinates": {"x": 10.6950, "y": 106.738}},
  {"LocationID": "LOC024", "Name": "Cu Chi Border Gate", "Type": "Cua_khau", "Address": "Cu Chi District, Ho Chi Minh City", "Coordinates": {"x": 10.9730, "y": 106.493}},
  {"LocationID": "LOC025", "Name": "Tan Binh Industrial Materials", "Type": "Kho_vat_tu", "Address": "Tan Binh District, Ho Chi Minh City", "Coordinates": {"x": 10.8000, "y": 106.651}},
  {"LocationID": "LOC026", "Name": "District 3 Retail Warehouse", "Type": "Warehouse", "Address": "District 3, Ho Chi Minh City", "Coordinates": {"x": 10.7815, "y": 106.686}},
  {"LocationID": "LOC027", "Name": "Ben Luc Port", "Type": "Port", "Address": "Ben Luc District, Long An", "Coordinates": {"x": 10.6400, "y": 106.480}},
  {"LocationID": "LOC028", "Name": "Thu Dau Mot Depot", "Type": "Depot", "Address": "Thu Dau Mot, Binh Duong", "Coordinates": {"x": 11.0020, "y": 106.667}},
  {"LocationID": "LOC029", "Name": "Bien Hoa Border Gate", "Type": "Cua_khau", "Address": "Bien Hoa, Dong Nai", "Coordinates": {"x": 10.9570, "y": 106.845}},
  {"LocationID": "LOC030", "Name": "Vinh Loc Warehouse", "Type": "Warehouse", "Address": "Vinh Loc, Binh Chanh, Ho Chi Minh City", "Coordinates": {"x": 10.7230, "y": 106.643}}
]
